{
  "total_count": 55,
  "results": [
    {
      "geoname_id": "2661025",
      "name": "Diegten",
      "ascii_name": "Diegten",
      "alternate_names": ["Digten", "di ge teng", "Дигтен", "迪格滕"],
      "latitude": "47.4138",
      "longitude": "7.81085",
      "feature_class": "P",
      "feature_code": "PPL",
      "country_code": "CH",
      "country_code_2": null,
      "admin1_code": "BL",
      "admin2_code": "1305",
      "admin3_code": "2884",
      "admin4_code": null,
      "population": 1633,
      "elevation": null,
      "dem": 468,
      "timezone": "Europe/Zurich",
      "modification_date": "2013-03-01",
      "country": "Switzerland",
      "coordinates": {
        "lon": 7.81085,
        "lat": 47.4138
      }
    },
    {
      "geoname_id": "6284995",
      "name": "Arboldswil",
      "ascii_name": "Arboldswil",
      "alternate_names": [
        "Arbol'dsvil'",
        "a bo de si wei er",
        "Арбольдсвиль",
        "阿博德斯維爾"
      ],
      "latitude": "47.41438",
      "longitude": "7.71755",
      "feature_class": "P",
      "feature_code": "PPL",
      "country_code": "CH",
      "country_code_2": null,
      "admin1_code": "BL",
      "admin2_code": "1305",
      "admin3_code": "2881",
      "admin4_code": null,
      "population": 509,
      "elevation": "628",
      "dem": 622,
      "timezone": "Europe/Zurich",
      "modification_date": "2013-03-01",
      "country": "Switzerland",
      "coordinates": {
        "lon": 7.71755,
        "lat": 47.41438
      }
    },
    {
      "geoname_id": "2661604",
      "name": "Basel",
      "ascii_name": "Basel",
      "alternate_names": [
        "BSL",
        "Bala",
        "Bale",
        "Basel",
        "Basilea",
        "Basileia",
        "Basilej",
        "Basilia",
        "Basilèa",
        "Basle",
        "Baxilea",
        "Baxiłea",
        "Bazel",
        "Bazel'",
        "Bazel' khot",
        "Bazele",
        "Bazeli",
        "Bazelis",
        "Bazelo",
        "Bazilej",
        "Bazylea",
        "Bázel",
        "Bâla",
        "Bâle",
        "Bāsel",
        "Bāzele",
        "EAP",
        "Robur",
        "Vasileia",
        "ba sai er",
        "ba seil",
        "bai cai er",
        "bajel",
        "bajela",
        "basala",
        "bazeli",
        "bazeru",
        "bazl",
        "bzl",
        "pecel",
        "Βασιλεία",
        "Базел",
        "Базель",
        "Базель хот",
        "Բազել",
        "באזעל",
        "בזל",
        "بازل",
        "बासल",
        "বাজেল",
        "பேசெல்",
        "บาเซิล",
        "པ་སེལ།",
        "ბაზელი",
        "ባዝል",
        "バーゼル",
        "巴塞尔",
        "巴塞爾",
        "白才尔",
        "바젤"
      ],
      "latitude": "47.55839",
      "longitude": "7.57327",
      "feature_class": "P",
      "feature_code": "PPLA",
      "country_code": "CH",
      "country_code_2": null,
      "admin1_code": "BS",
      "admin2_code": "1200",
      "admin3_code": "2701",
      "admin4_code": null,
      "population": 164488,
      "elevation": null,
      "dem": 279,
      "timezone": "Europe/Zurich",
      "modification_date": "2020-03-21",
      "country": "Switzerland",
      "coordinates": {
        "lon": 7.57327,
        "lat": 47.55839
      }
    },
    {
      "geoname_id": "2660002",
      "name": "Läufelfingen",
      "ascii_name": "Laufelfingen",
      "alternate_names": [
        "Laeufelfingen",
        "Lojfel'fingen",
        "luo yi fu fen gen",
        "Лойфельфинген",
        "洛伊弗芬根"
      ],
      "latitude": "47.39457",
      "longitude": "7.85578",
      "feature_class": "P",
      "feature_code": "PPL",
      "country_code": "CH",
      "country_code_2": null,
      "admin1_code": "BL",
      "admin2_code": "1304",
      "admin3_code": "2852",
      "admin4_code": null,
      "population": 1271,
      "elevation": null,
      "dem": 557,
      "timezone": "Europe/Zurich",
      "modification_date": "2013-03-01",
      "country": "Switzerland",
      "coordinates": {
        "lon": 7.85578,
        "lat": 47.39457
      }
    },
    {
      "geoname_id": "7290028",
      "name": "Känerkinden",
      "ascii_name": "Kaenerkinden",
      "alternate_names": [
        "Kenerkinden",
        "ke nei jin deng",
        "Кенеркинден",
        "克內金登"
      ],
      "latitude": "47.41188",
      "longitude": "7.83716",
      "feature_class": "P",
      "feature_code": "PPLA3",
      "country_code": "CH",
      "country_code_2": null,
      "admin1_code": "BL",
      "admin2_code": "1304",
      "admin3_code": "2850",
      "admin4_code": null,
      "population": 0,
      "elevation": "551",
      "dem": 548,
      "timezone": "Europe/Zurich",
      "modification_date": "2013-03-01",
      "country": "Switzerland",
      "coordinates": {
        "lon": 7.83716,
        "lat": 47.41188
      }
    },
    {
      "geoname_id": "2661297",
      "name": "Buus",
      "ascii_name": "Buus",
      "alternate_names": ["Bus", "Buus", "bu si", "Бус", "Буус", "布斯"],
      "latitude": "47.50635",
      "longitude": "7.86414",
      "feature_class": "P",
      "feature_code": "PPL",
      "country_code": "CH",
      "country_code_2": null,
      "admin1_code": "BL",
      "admin2_code": "1304",
      "admin3_code": "2844",
      "admin4_code": null,
      "population": 1005,
      "elevation": null,
      "dem": 436,
      "timezone": "Europe/Zurich",
      "modification_date": "2017-10-04",
      "country": "Switzerland",
      "coordinates": {
        "lon": 7.86414,
        "lat": 47.50635
      }
    },
    {
      "geoname_id": "6691673",
      "name": "Buckten",
      "ascii_name": "Buckten",
      "alternate_names": ["Bukten", "bu ke teng", "Буктен", "布克滕"],
      "latitude": "47.4099",
      "longitude": "7.84481",
      "feature_class": "P",
      "feature_code": "PPL",
      "country_code": "CH",
      "country_code_2": null,
      "admin1_code": "BL",
      "admin2_code": "1304",
      "admin3_code": "2843",
      "admin4_code": null,
      "population": 660,
      "elevation": null,
      "dem": 485,
      "timezone": "Europe/Zurich",
      "modification_date": "2013-03-01",
      "country": "Switzerland",
      "coordinates": {
        "lon": 7.84481,
        "lat": 47.4099
      }
    },
    {
      "geoname_id": "2661490",
      "name": "Birsfelden",
      "ascii_name": "Birsfelden",
      "alternate_names": [
        "Birsfel'den",
        "bi er si fei er deng",
        "brysfldan",
        "Бирсфельден",
        "بریسفلدان",
        "比爾斯費爾登"
      ],
      "latitude": "47.5529",
      "longitude": "7.62322",
      "feature_class": "P",
      "feature_code": "PPL",
      "country_code": "CH",
      "country_code_2": null,
      "admin1_code": "BL",
      "admin2_code": "1301",
      "admin3_code": "2766",
      "admin4_code": null,
      "population": 10232,
      "elevation": null,
      "dem": 259,
      "timezone": "Europe/Zurich",
      "modification_date": "2019-09-11",
      "country": "Switzerland",
      "coordinates": {
        "lon": 7.62322,
        "lat": 47.5529
      }
    },
    {
      "geoname_id": "2658386",
      "name": "Therwil",
      "ascii_name": "Therwil",
      "alternate_names": [
        "Tervil'",
        "Therwil",
        "te wei er",
        "Тервиль",
        "特維爾"
      ],
      "latitude": "47.49941",
      "longitude": "7.55669",
      "feature_class": "P",
      "feature_code": "PPL",
      "country_code": "CH",
      "country_code_2": null,
      "admin1_code": "BL",
      "admin2_code": "1301",
      "admin3_code": "2775",
      "admin4_code": null,
      "population": 9595,
      "elevation": null,
      "dem": 308,
      "timezone": "Europe/Zurich",
      "modification_date": "2017-10-04",
      "country": "Switzerland",
      "coordinates": {
        "lon": 7.55669,
        "lat": 47.49941
      }
    },
    {
      "geoname_id": "2661721",
      "name": "Arisdorf",
      "ascii_name": "Arisdorf",
      "alternate_names": [
        "Arisdorf",
        "a li si duo fu",
        "Арисдорф",
        "阿里斯多夫"
      ],
      "latitude": "47.51323",
      "longitude": "7.76515",
      "feature_class": "P",
      "feature_code": "PPL",
      "country_code": "CH",
      "country_code_2": null,
      "admin1_code": "BL",
      "admin2_code": "1303",
      "admin3_code": "2821",
      "admin4_code": null,
      "population": 1538,
      "elevation": null,
      "dem": 349,
      "timezone": "Europe/Zurich",
      "modification_date": "2013-03-01",
      "country": "Switzerland",
      "coordinates": {
        "lon": 7.76515,
        "lat": 47.51323
      }
    },
    {
      "geoname_id": "6255069",
      "name": "Itingen",
      "ascii_name": "Itingen",
      "alternate_names": ["Itingen", "yi ting gen", "Итинген", "伊廷根"],
      "latitude": "47.46651",
      "longitude": "7.78502",
      "feature_class": "P",
      "feature_code": "PPL",
      "country_code": "CH",
      "country_code_2": null,
      "admin1_code": "BL",
      "admin2_code": "1304",
      "admin3_code": "2849",
      "admin4_code": null,
      "population": 1750,
      "elevation": "370",
      "dem": 366,
      "timezone": "Europe/Zurich",
      "modification_date": "2013-03-01",
      "country": "Switzerland",
      "coordinates": {
        "lon": 7.78502,
        "lat": 47.46651
      }
    },
    {
      "geoname_id": "2661534",
      "name": "Bettingen",
      "ascii_name": "Bettingen",
      "alternate_names": [
        "Bettingen",
        "Bettingen BS",
        "bei ting gen",
        "Беттинген",
        "贝廷根"
      ],
      "latitude": "47.57039",
      "longitude": "7.66425",
      "feature_class": "P",
      "feature_code": "PPL",
      "country_code": "CH",
      "country_code_2": null,
      "admin1_code": "BS",
      "admin2_code": "1200",
      "admin3_code": "2702",
      "admin4_code": null,
      "population": 1189,
      "elevation": null,
      "dem": 383,
      "timezone": "Europe/Zurich",
      "modification_date": "2013-02-28",
      "country": "Switzerland",
      "coordinates": {
        "lon": 7.66425,
        "lat": 47.57039
      }
    },
    {
      "geoname_id": "3206590",
      "name": "Riehen",
      "ascii_name": "Riehen",
      "alternate_names": [
        "Riehn",
        "Rien",
        "li en",
        "ryan",
        "ryhyn",
        "Риен",
        "Риэн",
        "ريهين",
        "ریان",
        "ریہین",
        "里恩"
      ],
      "latitude": "47.57884",
      "longitude": "7.64683",
      "feature_class": "P",
      "feature_code": "PPL",
      "country_code": "CH",
      "country_code_2": null,
      "admin1_code": "BS",
      "admin2_code": "1200",
      "admin3_code": "2703",
      "admin4_code": null,
      "population": 20000,
      "elevation": null,
      "dem": 280,
      "timezone": "Europe/Zurich",
      "modification_date": "2019-09-10",
      "country": "Switzerland",
      "coordinates": {
        "lon": 7.64683,
        "lat": 47.57884
      }
    },
    {
      "geoname_id": "2660656",
      "name": "Gelterkinden",
      "ascii_name": "Gelterkinden",
      "alternate_names": [
        "Gel'terkinden",
        "Gelterkinden",
        "gai te jin deng",
        "Гельтеркинден",
        "蓋特金登"
      ],
      "latitude": "47.46497",
      "longitude": "7.85174",
      "feature_class": "P",
      "feature_code": "PPL",
      "country_code": "CH",
      "country_code_2": null,
      "admin1_code": "BL",
      "admin2_code": "1304",
      "admin3_code": "2846",
      "admin4_code": null,
      "population": 5709,
      "elevation": null,
      "dem": 397,
      "timezone": "Europe/Zurich",
      "modification_date": "2013-03-01",
      "country": "Switzerland",
      "coordinates": {
        "lon": 7.85174,
        "lat": 47.46497
      }
    },
    {
      "geoname_id": "2660719",
      "name": "Frenkendorf",
      "ascii_name": "Frenkendorf",
      "alternate_names": [
        "Frenkendorf",
        "fu lun ken duo fu",
        "Френкендорф",
        "弗倫肯多夫"
      ],
      "latitude": "47.50686",
      "longitude": "7.71648",
      "feature_class": "P",
      "feature_code": "PPL",
      "country_code": "CH",
      "country_code_2": null,
      "admin1_code": "BL",
      "admin2_code": "1303",
      "admin3_code": "2824",
      "admin4_code": null,
      "population": 6180,
      "elevation": null,
      "dem": 330,
      "timezone": "Europe/Zurich",
      "modification_date": "2013-03-01",
      "country": "Switzerland",
      "coordinates": {
        "lon": 7.71648,
        "lat": 47.50686
      }
    },
    {
      "geoname_id": "2661400",
      "name": "Bretzwil",
      "ascii_name": "Bretzwil",
      "alternate_names": [
        "Brecvil'",
        "Bretzwil",
        "bu lei ci wei er",
        "Брецвиль",
        "布雷茨維爾"
      ],
      "latitude": "47.39783",
      "longitude": "7.65222",
      "feature_class": "P",
      "feature_code": "PPL",
      "country_code": "CH",
      "country_code_2": null,
      "admin1_code": "BL",
      "admin2_code": "1305",
      "admin3_code": "2883",
      "admin4_code": null,
      "population": 746,
      "elevation": null,
      "dem": 635,
      "timezone": "Europe/Zurich",
      "modification_date": "2013-02-28",
      "country": "Switzerland",
      "coordinates": {
        "lon": 7.65222,
        "lat": 47.39783
      }
    },
    {
      "geoname_id": "2658411",
      "name": "Tecknau",
      "ascii_name": "Tecknau",
      "alternate_names": ["Tecknau", "Teknau", "te ke nao", "Текнау", "特克瑙"],
      "latitude": "47.4491",
      "longitude": "7.88491",
      "feature_class": "P",
      "feature_code": "PPL",
      "country_code": "CH",
      "country_code_2": null,
      "admin1_code": "BL",
      "admin2_code": "1304",
      "admin3_code": "2862",
      "admin4_code": null,
      "population": 856,
      "elevation": null,
      "dem": 440,
      "timezone": "Europe/Zurich",
      "modification_date": "2017-11-07",
      "country": "Switzerland",
      "coordinates": {
        "lon": 7.88491,
        "lat": 47.4491
      }
    },
    {
      "geoname_id": "2659522",
      "name": "Muttenz",
      "ascii_name": "Muttenz",
      "alternate_names": [
        "Muttenc",
        "mu teng ci",
        "mwtanz",
        "Муттенц",
        "موتانز",
        "穆滕茨"
      ],
      "latitude": "47.52271",
      "longitude": "7.64511",
      "feature_class": "P",
      "feature_code": "PPL",
      "country_code": "CH",
      "country_code_2": null,
      "admin1_code": "BL",
      "admin2_code": "1301",
      "admin3_code": "2770",
      "admin4_code": null,
      "population": 16927,
      "elevation": null,
      "dem": 293,
      "timezone": "Europe/Zurich",
      "modification_date": "2019-09-10",
      "country": "Switzerland",
      "coordinates": {
        "lon": 7.64511,
        "lat": 47.52271
      }
    },
    {
      "geoname_id": "2658968",
      "name": "Röschenz",
      "ascii_name": "Roschenz",
      "alternate_names": [
        "Rjoshenc",
        "Roschenz",
        "Röschenz",
        "lei shen ci",
        "Рёшенц",
        "勒申茨"
      ],
      "latitude": "47.42366",
      "longitude": "7.48024",
      "feature_class": "P",
      "feature_code": "PPL",
      "country_code": "CH",
      "country_code_2": null,
      "admin1_code": "BL",
      "admin2_code": "1302",
      "admin3_code": "2791",
      "admin4_code": null,
      "population": 1753,
      "elevation": null,
      "dem": 437,
      "timezone": "Europe/Zurich",
      "modification_date": "2015-06-05",
      "country": "Switzerland",
      "coordinates": {
        "lon": 7.48024,
        "lat": 47.42366
      }
    },
    {
      "geoname_id": "2660513",
      "name": "Grellingen",
      "ascii_name": "Grellingen",
      "alternate_names": [
        "Grellingen",
        "ge lei lin gen",
        "Греллинген",
        "格雷林根"
      ],
      "latitude": "47.44231",
      "longitude": "7.58906",
      "feature_class": "P",
      "feature_code": "PPL",
      "country_code": "CH",
      "country_code_2": null,
      "admin1_code": "BL",
      "admin2_code": "1302",
      "admin3_code": "2786",
      "admin4_code": null,
      "population": 1767,
      "elevation": null,
      "dem": 334,
      "timezone": "Europe/Zurich",
      "modification_date": "2013-02-28",
      "country": "Switzerland",
      "coordinates": {
        "lon": 7.58906,
        "lat": 47.44231
      }
    }
  ]
}
